[
  {
    "name": "Cauani Cavalcanti",
    "id": "886.668.346-07",
    "phone": "(07) 7177-0082",
    "location": [
      "Rua Pernambuco ",
      "6264",
      "São José",
      "Sergipe",
      "25236"
    ]
  },
  {
    "name": "Anália da Cunha",
    "id": "261.460.178-13",
    "phone": "(98) 8832-4652",
    "location": [
      "Rua Santa Rita ",
      "4871",
      "Açailândia",
      "Amazonas",
      "57361"
    ]
  },
  {
    "name": "Kévim Fogaça",
    "id": "457.692.516-63",
    "phone": "(13) 6137-3386",
    "location": [
      "Rua Alagoas ",
      "9006",
      "Campos dos Goytacazes",
      "Maranhão",
      "28650"
    ]
  },
  {
    "name": "Tomás Ferreira",
    "id": "744.417.092-20",
    "phone": "(77) 9153-5539",
    "location": [
      "Rua Bela Vista ",
      "9691",
      "Teresina",
      "Tocantins",
      "52205"
    ]
  },
  {
    "name": "Hildebrando Peixoto",
    "id": "166.918.305-57",
    "phone": "(19) 9282-0857",
    "location": [
      "Rua Vinte E Um",
      "4324",
      "Francisco Morato",
      "Distrito Federal",
      "81737"
    ]
  },
  {
    "name": "Nina Monteiro",
    "id": "239.061.191-35",
    "phone": "(67) 5971-7374",
    "location": [
      "Rua Minas Gerais ",
      "9235",
      "Serra",
      "Rio Grande do Sul",
      "86616"
    ]
  },
  {
    "name": "Sofia Gonçalves",
    "id": "518.151.808-29",
    "phone": "(03) 8390-8792",
    "location": [
      "Avenida Brasil ",
      "7837",
      "Fortaleza",
      "Goiás",
      "19188"
    ]
  },
  {
    "name": "Francisco de Sales da Luz",
    "id": "390.516.544-57",
    "phone": "(65) 6521-0136",
    "location": [
      "Rua Paraíba ",
      "9305",
      "Campo Largo",
      "Distrito Federal",
      "32626"
    ]
  },
  {
    "name": "Teka da Cunha",
    "id": "695.812.734-91",
    "phone": "(20) 2814-8342",
    "location": [
      "Travessa dos Açorianos",
      "6887",
      "Ipatinga",
      "Tocantins",
      "18553"
    ]
  },
  {
    "name": "Honório Cavalcanti",
    "id": "451.285.930-49",
    "phone": "(84) 1325-3036",
    "location": [
      "Rua da Paz ",
      "2343",
      "Jaraguá do Sul",
      "Paraíba",
      "77448"
    ]
  },
  {
    "name": "Dâni Nunes",
    "id": "245.398.100-46",
    "phone": "(21) 1144-8022",
    "location": [
      "Rua Rio de Janeiro ",
      "5079",
      "Natal",
      "Mato Grosso do Sul",
      "30858"
    ]
  },
  {
    "name": "Énio Lopes",
    "id": "228.913.937-68",
    "phone": "(32) 7209-9037",
    "location": [
      "Rua Treze ",
      "3336",
      "Rio Branco",
      "Bahia",
      "47152"
    ]
  },
  {
    "name": "Loiva Freitas",
    "id": "992.842.850-08",
    "phone": "(07) 8330-9177",
    "location": [
      "Rua Rio de Janeiro ",
      "5391",
      "Franca",
      "Ceará",
      "51989"
    ]
  },
  {
    "name": "Madalena Monteiro",
    "id": "262.921.805-21",
    "phone": "(03) 8357-4092",
    "location": [
      "Rua Treze ",
      "5469",
      "Ilhéus",
      "São Paulo",
      "91562"
    ]
  },
  {
    "name": "Jaci Nascimento",
    "id": "425.047.571-33",
    "phone": "(99) 0878-0792",
    "location": [
      "Rua Santa Maria ",
      "276",
      "Gravataí",
      "Roraima",
      "26143"
    ]
  },
  {
    "name": "Getúlio Freitas",
    "id": "389.229.092-11",
    "phone": "(91) 5616-3171",
    "location": [
      "Rua Vinte E Dois ",
      "5526",
      "Catanduva",
      "São Paulo",
      "97876"
    ]
  },
  {
    "name": "Liliane Porto",
    "id": "633.450.617-20",
    "phone": "(22) 9974-2690",
    "location": [
      "Rua Bela Vista ",
      "4822",
      "Sabará",
      "Acre",
      "33011"
    ]
  },
  {
    "name": "Salazar Vieira",
    "id": "650.139.603-96",
    "phone": "(71) 4374-7544",
    "location": [
      "Travessa dos Martírios",
      "6747",
      "Queimados",
      "Distrito Federal",
      "97091"
    ]
  },
  {
    "name": "Heliodoro Gomes",
    "id": "900.371.906-32",
    "phone": "(07) 0909-6697",
    "location": [
      "Rua Santo Antônio ",
      "9119",
      "Marabá",
      "Bahia",
      "90560"
    ]
  },
  {
    "name": "Magdo Mendes",
    "id": "251.594.898-99",
    "phone": "(44) 4724-9976",
    "location": [
      "Avenida da Legalidade",
      "576",
      "Jaboatão dos Guararapes",
      "Pará",
      "73964"
    ]
  },
  {
    "name": "Deondina Araújo",
    "id": "420.762.274-24",
    "phone": "(25) 5280-8248",
    "location": [
      "Rua Treze ",
      "7193",
      "Alagoinhas",
      "Mato Grosso do Sul",
      "23307"
    ]
  },
  {
    "name": "Samira da Conceição",
    "id": "128.812.019-54",
    "phone": "(24) 7679-2848",
    "location": [
      "Rua Vinte E Quatro de Outubro",
      "7954",
      "Indaiatuba",
      "Tocantins",
      "87385"
    ]
  },
  {
    "name": "Teodemiro Barros",
    "id": "326.155.976-69",
    "phone": "(02) 6499-1709",
    "location": [
      "Rua Paraná ",
      "7775",
      "Taboão da Serra",
      "Maranhão",
      "86142"
    ]
  }
]